{
  "type": "FeatureCollection",
  "features": [
    {
      "type": "Feature",
      "properties": {
        "name": "Anacortes",
        "airport": "74S (Anacortes)",
        "meeting": "2nd Thursday every 3rd month, Micro Aerodynamics hangar",
        "contact": "Blake Thorn, 360-672-5695"
      },
      "geometry": { "type": "Point", "coordinates": [-122.6622, 48.4988] }
    },
    {
      "type": "Feature",
      "properties": {
        "name": "Arlington",
        "airport": "KAWO (Arlington)",
        "meeting": "1st Wednesday each month, Neal Carman's hangar",
        "contact": "Conor Baer, 425-941-5482"
      },
      "geometry": { "type": "Point", "coordinates": [-122.1598, 48.1607] }
    },
    {
      "type": "Feature",
      "properties": {
        "name": "Bremerton",
        "airport": "KPWT (Bremerton)",
        "meeting": "Check wpaflys.org for details",
        "contact": "Doug Haughton, 360-710-3481"
      },
      "geometry": { "type": "Point", "coordinates": [-122.7649, 47.4903] }
    },
    {
      "type": "Feature",
      "properties": {
        "name": "Clallam County",
        "airport": "KCLM (Port Angeles)",
        "meeting": "Periodic lunch meetings",
        "contact": "Colette Miller, 714-356-5669"
      },
      "geometry": { "type": "Point", "coordinates": [-123.4997, 48.1202] }
    },
    {
      "type": "Feature",
      "properties": {
        "name": "Colville Valley",
        "airport": "Colville Airport (63S)",
        "meeting": "Contact for schedule",
        "contact": "Dave Garringer, 509-675-1041"
      },
      "geometry": { "type": "Point", "coordinates": [-117.8844, 48.5416] }
    },
    {
      "type": "Feature",
      "properties": {
        "name": "Deer Park",
        "airport": "KDEW (Deer Park)",
        "meeting": "As needed at admin building",
        "contact": "Darold Schultz, 509-999-5835"
      },
      "geometry": { "type": "Point", "coordinates": [-117.4267, 47.9669] }
    },
    {
      "type": "Feature",
      "properties": {
        "name": "Green River",
        "airport": "KRNT/KTIW area",
        "meeting": "2nd Friday of even months",
        "contact": "Terri Tederman, 206-679-3568"
      },
      "geometry": { "type": "Point", "coordinates": [-122.2159, 47.4931] }
    },
    {
      "type": "Feature",
      "properties": {
        "name": "Harvey Field/Snohomish",
        "airport": "S43 (Harvey Field)",
        "meeting": "2nd Saturday each month (except July), Hangar 15",
        "contact": "David Divoky, 559-696-3247"
      },
      "geometry": { "type": "Point", "coordinates": [-122.1051, 47.9039] }
    },
    {
      "type": "Feature",
      "properties": {
        "name": "Methow Valley",
        "airport": "Twisp Airport (1S2)",
        "meeting": "2nd Wednesday monthly (Sept-Apr), Fitzpatrick hangar",
        "contact": "Rick LeDuc, 509-429-2922"
      },
      "geometry": { "type": "Point", "coordinates": [-120.0758, 48.3647] }
    },
    {
      "type": "Feature",
      "properties": {
        "name": "Moses Lake",
        "airport": "KMWH (Moses Lake)",
        "meeting": "Monthly meetings",
        "contact": "Jeremy Davis, 509-989-8095"
      },
      "geometry": { "type": "Point", "coordinates": [-119.3200, 47.2077] }
    },
    {
      "type": "Feature",
      "properties": {
        "name": "North Sound/Bellingham",
        "airport": "KBLI (Bellingham)",
        "meeting": "2nd Thursday monthly (except Jun-Aug), ARFF Conference Center",
        "contact": "Lyle Jansma, 360-319-0425"
      },
      "geometry": { "type": "Point", "coordinates": [-122.5375, 48.7928] }
    },
    {
      "type": "Feature",
      "properties": {
        "name": "Okanogan & Ferry County",
        "airport": "KOMK (Omak)",
        "meeting": "4th Tuesday monthly, Omak Elks Lodge",
        "contact": "Mark Christoph, 509-429-2426"
      },
      "geometry": { "type": "Point", "coordinates": [-119.5178, 48.4644] }
    },
    {
      "type": "Feature",
      "properties": {
        "name": "Paine Field",
        "airport": "KPAE (Paine Field)",
        "meeting": "1st Thursday most months",
        "contact": "secretary@wpapainefield.org"
      },
      "geometry": { "type": "Point", "coordinates": [-122.2816, 47.9063] }
    },
    {
      "type": "Feature",
      "properties": {
        "name": "Shelton-Sanderson",
        "airport": "KSHN (Sanderson Field)",
        "meeting": "Saturday 10 AM in pilot lounge",
        "contact": "Jim Murphy, 503-559-7736"
      },
      "geometry": { "type": "Point", "coordinates": [-123.1476, 47.2336] }
    },
    {
      "type": "Feature",
      "properties": {
        "name": "Skagit",
        "airport": "KBVS (Skagit Regional)",
        "meeting": "Last Tuesday monthly, 6 PM at Cascade Aviation",
        "contact": "Jerry Higgins, 360-540-4350"
      },
      "geometry": { "type": "Point", "coordinates": [-122.4207, 48.4708] }
    },
    {
      "type": "Feature",
      "properties": {
        "name": "Southwest/Vancouver",
        "airport": "KVUO (Pearson Field)",
        "meeting": "Contact for info",
        "contact": "Jeff Jarvis, 503-735-5432"
      },
      "geometry": { "type": "Point", "coordinates": [-122.6564, 45.6205] }
    },
    {
      "type": "Feature",
      "properties": {
        "name": "Spokane",
        "airport": "KGEG/KSFF area",
        "meeting": "3rd Wednesday monthly, 6 PM at Darcy's",
        "contact": "Andy Luebke, 509-994-7231"
      },
      "geometry": { "type": "Point", "coordinates": [-117.5339, 47.6828] }
    },
    {
      "type": "Feature",
      "properties": {
        "name": "Tri-Cities",
        "airport": "KPSC/KRLD area",
        "meeting": "Contact for info",
        "contact": "Edward Keenan, 509-212-1371"
      },
      "geometry": { "type": "Point", "coordinates": [-119.1190, 46.2647] }
    },
    {
      "type": "Feature",
      "properties": {
        "name": "Twin Harbors",
        "airport": "KHQM (Hoquiam)",
        "meeting": "Looking to be rejuvenated",
        "contact": "Contact WPA State",
        "inactive": true
      },
      "geometry": { "type": "Point", "coordinates": [-123.9367, 46.9712] }
    },
    {
      "type": "Feature",
      "properties": {
        "name": "Wenatchee",
        "airport": "KEAT (Pangborn)",
        "meeting": "3rd Tuesday monthly, 6 PM",
        "contact": "Klaus Marx, 907-723-4379"
      },
      "geometry": { "type": "Point", "coordinates": [-120.2070, 47.3989] }
    },
    {
      "type": "Feature",
      "properties": {
        "name": "Yakima Valley",
        "airport": "KYKM (McAllister Field)",
        "meeting": "4th Thursday monthly; Sat 8:30 AM coffee at Airpark",
        "contact": "Gary Klingele, 509-421-1597"
      },
      "geometry": { "type": "Point", "coordinates": [-120.5440, 46.5682] }
    }
  ]
}
